name,lat,lon
Berlin,52.5200,13.4050
Hamburg,53.5511,9.9937
Muenchen,48.1351,11.5820
Koeln,50.9375,6.9603
Frankfurt,50.1109,8.6821
Dresden,51.0504,13.7373
Leipzig,51.3397,12.3731
Rostock,54.0833,12.1088
Stuttgart,48.7758,9.1821
Erfurt,50.9787,11.0328
